{
  "WINN": [
    {
      "ori": "LA0640100",
      "counties": "WINN",
      "is_nibrs": true,
      "latitude": 31.923979,
      "longitude": -92.63959,
      "state_abbr": "LA",
      "state_name": "Louisiana",
      "agency_name": "Winnfield Police Department",
      "agency_type_name": "City",
      "nibrs_start_date": "2023-01-01"
    },
    {
      "ori": "LA0640000",
      "counties": "WINN",
      "is_nibrs": true,
      "latitude": 31.941187,
      "longitude": -92.641269,
      "state_abbr": "LA",
      "state_name": "Louisiana",
      "agency_name": "Winn Parish Sheriff's Office",
      "agency_type_name": "County",
      "nibrs_start_date": "2019-03-01"
    }
  ],
  "ALLEN": [
    {
      "ori": "LA0020000",
      "counties": "ALLEN",
      "is_nibrs": true,
      "latitude": 30.652744,
      "longitude": -92.819605,
      "state_abbr": "LA",
      "state_name": "Louisiana",
      "agency_name": "Allen Parish Sheriff's Office",
      "agency_type_name": "County",
      "nibrs_start_date": "2021-09-01"
    },
    {
      "ori": "LA0020100",
      "counties": "ALLEN",
      "is_nibrs": false,
      "latitude": 30.652744,
      "longitude": -92.819605,
      "state_abbr": "LA",
      "state_name": "Louisiana",
      "agency_name": "Kinder Police Department",
      "agency_type_name": "City",
      "nibrs_start_date": null
    },
    {
      "ori": "LA0020200",
      "counties": "ALLEN",
      "is_nibrs": false,
      "latitude": 30.817131,
      "longitude": -92.66221,
      "state_abbr": "LA",
      "state_name": "Louisiana",
      "agency_name": "Oakdale Police Department",
      "agency_type_name": "City",
      "nibrs_start_date": null
    },
    {
      "ori": "LA0020300",
      "counties": "ALLEN",
      "is_nibrs": false,
      "latitude": 30.652744,
      "longitude": -92.819605,
      "state_abbr": "LA",
      "state_name": "Louisiana",
      "agency_name": "Oberlin Police Department",
      "agency_type_name": "City",
      "nibrs_start_date": null
    }
  ],
  "CADDO": [
    {
      "ori": "LA0090400",
      "counties": "CADDO",
      "is_nibrs": true,
      "latitude": 32.577195,
      "longitude": -93.882423,
      "state_abbr": "LA",
      "state_name": "Louisiana",
      "agency_name": "Blanchard Police Department",
      "agency_type_name": "City",
      "nibrs_start_date": "2021-01-01"
    },
    {
      "ori": "LA0090800",
      "counties": "CADDO",
      "is_nibrs": true,
      "latitude": 32.577195,
      "longitude": -93.882423,
      "state_abbr": "LA",
      "state_name": "Louisiana",
      "agency_name": "Ida Police Department",
      "agency_type_name": "City",
      "nibrs_start_date": "2020-09-01"
    },
    {
      "ori": "LA0091000",
      "counties": "CADDO",
      "is_nibrs": true,
      "latitude": 32.577195,
      "longitude": -93.882423,
      "state_abbr": "LA",
      "state_name": "Louisiana",
      "agency_name": "Greenwood Police Department",
      "agency_type_name": "City",
      "nibrs_start_date": "2021-01-01"
    },
    {
      "ori": "LA0090000",
      "counties": "CADDO",
      "is_nibrs": true,
      "latitude": 32.51362,
      "longitude": -93.7506,
      "state_abbr": "LA",
      "state_name": "Louisiana",
      "agency_name": "Caddo Parish Sheriff's Office",
      "agency_type_name": "County",
      "nibrs_start_date": "2004-01-01"
    }
  ],
  "GRANT": [
    {
      "ori": "LA0220000",
      "counties": "GRANT",
      "is_nibrs": true,
      "latitude": 31.597787,
      "longitude": -92.561716,
      "state_abbr": "LA",
      "state_name": "Louisiana",
      "agency_name": "Grant Parish Sheriff's Office",
      "agency_type_name": "County",
      "nibrs_start_date": "2021-01-01"
    }
  ],
  "UNION": [
    {
      "ori": "LA0560000",
      "counties": "UNION",
      "is_nibrs": false,
      "latitude": 32.829349,
      "longitude": -92.37565,
      "state_abbr": "LA",
      "state_name": "Louisiana",
      "agency_name": "Union Parish Sheriff's Office",
      "agency_type_name": "County",
      "nibrs_start_date": null
    },
    {
      "ori": "LA0560400",
      "counties": "UNION",
      "is_nibrs": true,
      "latitude": 32.901417,
      "longitude": -92.24312,
      "state_abbr": "LA",
      "state_name": "Louisiana",
      "agency_name": "Marion Police Department",
      "agency_type_name": "City",
      "nibrs_start_date": "2020-09-01"
    },
    {
      "ori": "LA0560100",
      "counties": "UNION",
      "is_nibrs": true,
      "latitude": 32.829349,
      "longitude": -92.37565,
      "state_abbr": "LA",
      "state_name": "Louisiana",
      "agency_name": "Farmerville Police Department",
      "agency_type_name": "City",
      "nibrs_start_date": "2023-01-01"
    },
    {
      "ori": "LA0560200",
      "counties": "UNION",
      "is_nibrs": true,
      "latitude": 32.829349,
      "longitude": -92.37565,
      "state_abbr": "LA",
      "state_name": "Louisiana",
      "agency_name": "Bernice Police Department",
      "agency_type_name": "City",
      "nibrs_start_date": "2005-01-01"
    }
  ],
  "ACADIA": [
    {
      "ori": "LA0010000",
      "counties": "ACADIA",
      "is_nibrs": true,
      "latitude": 30.291497,
      "longitude": -92.411037,
      "state_abbr": "LA",
      "state_name": "Louisiana",
      "agency_name": "Acadia Parish Sheriff's Office",
      "agency_type_name": "County",
      "nibrs_start_date": "2006-09-01"
    },
    {
      "ori": "LA0010100",
      "counties": "ACADIA",
      "is_nibrs": true,
      "latitude": 30.291497,
      "longitude": -92.411037,
      "state_abbr": "LA",
      "state_name": "Louisiana",
      "agency_name": "Crowley Police Department",
      "agency_type_name": "City",
      "nibrs_start_date": "2021-01-01"
    },
    {
      "ori": "LA0010300",
      "counties": "ACADIA",
      "is_nibrs": true,
      "latitude": 30.405752,
      "longitude": -92.21725,
      "state_abbr": "LA",
      "state_name": "Louisiana",
      "agency_name": "Church Point Police Department",
      "agency_type_name": "City",
      "nibrs_start_date": "2020-04-01"
    },
    {
      "ori": "LA0010200",
      "counties": "ACADIA",
      "is_nibrs": true,
      "latitude": 30.291497,
      "longitude": -92.411037,
      "state_abbr": "LA",
      "state_name": "Louisiana",
      "agency_name": "Rayne Police Department",
      "agency_type_name": "City",
      "nibrs_start_date": "2020-09-01"
    }
  ],
  "IBERIA": [
    {
      "ori": "LA0230200",
      "counties": "IBERIA",
      "is_nibrs": false,
      "latitude": 29.904728,
      "longitude": -91.66978,
      "state_abbr": "LA",
      "state_name": "Louisiana",
      "agency_name": "Jeanerette Police Department",
      "agency_type_name": "City",
      "nibrs_start_date": null
    },
    {
      "ori": "LA0230300",
      "counties": "IBERIA",
      "is_nibrs": false,
      "latitude": 30.00271,
      "longitude": -91.81355,
      "state_abbr": "LA",
      "state_name": "Louisiana",
      "agency_name": "New Iberia Police Department",
      "agency_type_name": "City",
      "nibrs_start_date": null
    },
    {
      "ori": "LA0230000",
      "counties": "IBERIA",
      "is_nibrs": true,
      "latitude": 30.004484,
      "longitude": -91.820404,
      "state_abbr": "LA",
      "state_name": "Louisiana",
      "agency_name": "Iberia Parish Sheriff's Office",
      "agency_type_name": "County",
      "nibrs_start_date": "2011-01-01"
    }
  ],
  "SABINE": [
    {
      "ori": "LA0430000",
      "counties": "SABINE",
      "is_nibrs": false,
      "latitude": 31.560209,
      "longitude": -93.559228,
      "state_abbr": "LA",
      "state_name": "Louisiana",
      "agency_name": "Sabine Parish Sheriff's Office",
      "agency_type_name": "County",
      "nibrs_start_date": null
    },
    {
      "ori": "LA0430500",
      "counties": "SABINE",
      "is_nibrs": false,
      "latitude": 31.444082,
      "longitude": -93.45514,
      "state_abbr": "LA",
      "state_name": "Louisiana",
      "agency_name": "Florien Police Department",
      "agency_type_name": "City",
      "nibrs_start_date": null
    },
    {
      "ori": "LA0430700",
      "counties": "SABINE",
      "is_nibrs": true,
      "latitude": 31.560209,
      "longitude": -93.559228,
      "state_abbr": "LA",
      "state_name": "Louisiana",
      "agency_name": "Fisher Police Department",
      "agency_type_name": "City",
      "nibrs_start_date": "2021-01-01"
    },
    {
      "ori": "LA0430100",
      "counties": "SABINE",
      "is_nibrs": false,
      "latitude": 31.568363,
      "longitude": -93.48213,
      "state_abbr": "LA",
      "state_name": "Louisiana",
      "agency_name": "Many Police Department",
      "agency_type_name": "City",
      "nibrs_start_date": null
    }
  ],
  "TENSAS": [
    {
      "ori": "LA0540000",
      "counties": "TENSAS",
      "is_nibrs": true,
      "latitude": 32.001489,
      "longitude": -91.342576,
      "state_abbr": "LA",
      "state_name": "Louisiana",
      "agency_name": "Tensas Parish Sheriff's Office",
      "agency_type_name": "County",
      "nibrs_start_date": "2009-01-01"
    }
  ],
  "VERNON": [
    {
      "ori": "LA0580200",
      "counties": "VERNON",
      "is_nibrs": false,
      "latitude": 31.11617,
      "longitude": -93.27393,
      "state_abbr": "LA",
      "state_name": "Louisiana",
      "agency_name": "New Llano Police Department",
      "agency_type_name": "City",
      "nibrs_start_date": null
    },
    {
      "ori": "LA0580000",
      "counties": "VERNON",
      "is_nibrs": false,
      "latitude": 31.110563,
      "longitude": -93.18152,
      "state_abbr": "LA",
      "state_name": "Louisiana",
      "agency_name": "Vernon Parish Sheriff's Office",
      "agency_type_name": "County",
      "nibrs_start_date": null
    },
    {
      "ori": "LA0580100",
      "counties": "VERNON",
      "is_nibrs": false,
      "latitude": 31.143944,
      "longitude": -93.26386,
      "state_abbr": "LA",
      "state_name": "Louisiana",
      "agency_name": "Leesville Police Department",
      "agency_type_name": "City",
      "nibrs_start_date": null
    },
    {
      "ori": "LA0580300",
      "counties": "VERNON",
      "is_nibrs": false,
      "latitude": 31.110563,
      "longitude": -93.18152,
      "state_abbr": "LA",
      "state_name": "Louisiana",
      "agency_name": "Rosepine Police Department",
      "agency_type_name": "City",
      "nibrs_start_date": null
    }
  ],
  "BOSSIER": [
    {
      "ori": "LA0080500",
      "counties": "BOSSIER",
      "is_nibrs": true,
      "latitude": 32.481724,
      "longitude": -93.76072,
      "state_abbr": "LA",
      "state_name": "Louisiana",
      "agency_name": "Louisiana State University: Health Sciences Center, Shreveport",
      "agency_type_name": "University or College",
      "nibrs_start_date": "2020-06-01"
    },
    {
      "ori": "LA0080000",
      "counties": "BOSSIER",
      "is_nibrs": true,
      "latitude": 32.696225,
      "longitude": -93.618086,
      "state_abbr": "LA",
      "state_name": "Louisiana",
      "agency_name": "Bossier Parish Sheriff's Office",
      "agency_type_name": "County",
      "nibrs_start_date": "2004-01-01"
    },
    {
      "ori": "LA0080100",
      "counties": "BOSSIER",
      "is_nibrs": true,
      "latitude": 32.696225,
      "longitude": -93.618086,
      "state_abbr": "LA",
      "state_name": "Louisiana",
      "agency_name": "Bossier City Police Department",
      "agency_type_name": "City",
      "nibrs_start_date": "2019-10-01"
    },
    {
      "ori": "LA0080200",
      "counties": "BOSSIER",
      "is_nibrs": true,
      "latitude": null,
      "longitude": null,
      "state_abbr": "LA",
      "state_name": "Louisiana",
      "agency_name": "Benton",
      "agency_type_name": null,
      "nibrs_start_date": "2019-06-01"
    },
    {
      "ori": "LA0080300",
      "counties": "BOSSIER",
      "is_nibrs": true,
      "latitude": null,
      "longitude": null,
      "state_abbr": "LA",
      "state_name": "Louisiana",
      "agency_name": "Plain Dealing",
      "agency_type_name": null,
      "nibrs_start_date": "2020-11-01"
    },
    {
      "ori": "LA0080400",
      "counties": "BOSSIER",
      "is_nibrs": true,
      "latitude": 32.696225,
      "longitude": -93.618086,
      "state_abbr": "LA",
      "state_name": "Louisiana",
      "agency_name": "Haughton Police Department",
      "agency_type_name": "City",
      "nibrs_start_date": "2022-01-01"
    },
    {
      "ori": "LA0080600",
      "counties": "BOSSIER",
      "is_nibrs": true,
      "latitude": 32.432076,
      "longitude": -93.70222,
      "state_abbr": "LA",
      "state_name": "Louisiana",
      "agency_name": "Louisiana State University: Shreveport",
      "agency_type_name": "University or College",
      "nibrs_start_date": "2020-01-01"
    },
    {
      "ori": "LA0080700",
      "counties": "BOSSIER",
      "is_nibrs": false,
      "latitude": 32.54364,
      "longitude": -93.832954,
      "state_abbr": "LA",
      "state_name": "Louisiana",
      "agency_name": "Southern University and A&M College: Shreveport",
      "agency_type_name": "University or College",
      "nibrs_start_date": null
    }
  ],
  "CAMERON": [
    {
      "ori": "LA0120000",
      "counties": "CAMERON",
      "is_nibrs": true,
      "latitude": 29.871888,
      "longitude": -93.165539,
      "state_abbr": "LA",
      "state_name": "Louisiana",
      "agency_name": "Cameron Parish Sheriff's Office",
      "agency_type_name": "County",
      "nibrs_start_date": "2005-01-01"
    }
  ],
  "DE SOTO": [
    {
      "ori": "LA0160000",
      "counties": "DE SOTO",
      "is_nibrs": true,
      "latitude": 32.03907,
      "longitude": -93.70989,
      "state_abbr": "LA",
      "state_name": "Louisiana",
      "agency_name": "De Soto Parish Sheriff's Office",
      "agency_type_name": "County",
      "nibrs_start_date": "2021-01-01"
    },
    {
      "ori": "LA0160100",
      "counties": "DE SOTO",
      "is_nibrs": true,
      "latitude": 32.059248,
      "longitude": -93.740797,
      "state_abbr": "LA",
      "state_name": "Louisiana",
      "agency_name": "Mansfield Police Department",
      "agency_type_name": "City",
      "nibrs_start_date": "2020-08-01"
    }
  ],
  "JACKSON": [
    {
      "ori": "LA0250000",
      "counties": "JACKSON",
      "is_nibrs": true,
      "latitude": 32.240776,
      "longitude": -92.715485,
      "state_abbr": "LA",
      "state_name": "Louisiana",
      "agency_name": "Jackson Parish Sheriff's Office",
      "agency_type_name": "County",
      "nibrs_start_date": "2020-07-01"
    }
  ],
  "LINCOLN": [
    {
      "ori": "LA0310200",
      "counties": "LINCOLN",
      "is_nibrs": true,
      "latitude": 32.601823,
      "longitude": -92.662303,
      "state_abbr": "LA",
      "state_name": "Louisiana",
      "agency_name": "Ruston Police Department",
      "agency_type_name": "City",
      "nibrs_start_date": "2020-01-01"
    },
    {
      "ori": "LA0310300",
      "counties": "LINCOLN",
      "is_nibrs": false,
      "latitude": 32.601823,
      "longitude": -92.662303,
      "state_abbr": "LA",
      "state_name": "Louisiana",
      "agency_name": "Grambling Police Department",
      "agency_type_name": "City",
      "nibrs_start_date": null
    },
    {
      "ori": "LA0310600",
      "counties": "LINCOLN",
      "is_nibrs": false,
      "latitude": 32.601823,
      "longitude": -92.662303,
      "state_abbr": "LA",
      "state_name": "Louisiana",
      "agency_name": "Grambling State University",
      "agency_type_name": "University or College",
      "nibrs_start_date": null
    },
    {
      "ori": "LA0310700",
      "counties": "LINCOLN",
      "is_nibrs": true,
      "latitude": 32.601823,
      "longitude": -92.662303,
      "state_abbr": "LA",
      "state_name": "Louisiana",
      "agency_name": "Louisiana Tech University",
      "agency_type_name": "University or College",
      "nibrs_start_date": "2021-01-01"
    },
    {
      "ori": "LA0310000",
      "counties": "LINCOLN",
      "is_nibrs": true,
      "latitude": 32.52667,
      "longitude": -92.63829,
      "state_abbr": "LA",
      "state_name": "Louisiana",
      "agency_name": "Lincoln Parish Sheriff's Office",
      "agency_type_name": "County",
      "nibrs_start_date": "2020-07-01"
    }
  ],
  "MADISON": [
    {
      "ori": "LA0330000",
      "counties": "MADISON",
      "is_nibrs": true,
      "latitude": 32.407642,
      "longitude": -91.187164,
      "state_abbr": "LA",
      "state_name": "Louisiana",
      "agency_name": "Madison Parish Sheriff's Office",
      "agency_type_name": "County",
      "nibrs_start_date": "2003-01-01"
    },
    {
      "ori": "LA0330100",
      "counties": "MADISON",
      "is_nibrs": true,
      "latitude": 32.40846,
      "longitude": -91.1866,
      "state_abbr": "LA",
      "state_name": "Louisiana",
      "agency_name": "Tallulah Police Department",
      "agency_type_name": "City",
      "nibrs_start_date": "2007-01-01"
    }
  ],
  "ORLEANS": [
    {
      "ori": "LA0360200",
      "counties": "ORLEANS",
      "is_nibrs": true,
      "latitude": 29.983511,
      "longitude": -90.106285,
      "state_abbr": "LA",
      "state_name": "Louisiana",
      "agency_name": "Delgado Community College",
      "agency_type_name": "University or College",
      "nibrs_start_date": "2021-01-01"
    },
    {
      "ori": "LA0360300",
      "counties": "ORLEANS",
      "is_nibrs": true,
      "latitude": 30.030651,
      "longitude": -90.06331,
      "state_abbr": "LA",
      "state_name": "Louisiana",
      "agency_name": "University of New Orleans",
      "agency_type_name": "University or College",
      "nibrs_start_date": "2021-01-01"
    },
    {
      "ori": "LANPD0000",
      "counties": "ORLEANS",
      "is_nibrs": false,
      "latitude": 29.960224,
      "longitude": -90.09213,
      "state_abbr": "LA",
      "state_name": "Louisiana",
      "agency_name": "New Orleans Police Department",
      "agency_type_name": "City",
      "nibrs_start_date": null
    },
    {
      "ori": "LA0361200",
      "counties": "ORLEANS",
      "is_nibrs": true,
      "latitude": 30.024525,
      "longitude": -90.04403,
      "state_abbr": "LA",
      "state_name": "Louisiana",
      "agency_name": "Southern University and A&M College: New Orleans",
      "agency_type_name": "University or College",
      "nibrs_start_date": "2021-01-01"
    },
    {
      "ori": "LA0361700",
      "counties": "ORLEANS",
      "is_nibrs": false,
      "latitude": 29.957678,
      "longitude": -90.08284,
      "state_abbr": "LA",
      "state_name": "Louisiana",
      "agency_name": "Louisiana State University: Health Sciences Center, New Orleans",
      "agency_type_name": "University or College",
      "nibrs_start_date": null
    },
    {
      "ori": "LA036209E",
      "counties": "ORLEANS",
      "is_nibrs": true,
      "latitude": 29.93539,
      "longitude": -90.12396,
      "state_abbr": "LA",
      "state_name": "Louisiana",
      "agency_name": "Tulane University",
      "agency_type_name": null,
      "nibrs_start_date": "2022-01-01"
    },
    {
      "ori": "LA036219E",
      "counties": "ORLEANS",
      "is_nibrs": false,
      "latitude": null,
      "longitude": null,
      "state_abbr": "LA",
      "state_name": "Louisiana",
      "agency_name": "Dillard University",
      "agency_type_name": "University or College",
      "nibrs_start_date": null
    }
  ],
  "RAPIDES": [
    {
      "ori": "LA0400200",
      "counties": "RAPIDES",
      "is_nibrs": false,
      "latitude": 31.324041,
      "longitude": -92.43274,
      "state_abbr": "LA",
      "state_name": "Louisiana",
      "agency_name": "Pineville Police Department",
      "agency_type_name": "City",
      "nibrs_start_date": null
    },
    {
      "ori": "LA0400700",
      "counties": "RAPIDES",
      "is_nibrs": false,
      "latitude": 31.193204,
      "longitude": -92.535953,
      "state_abbr": "LA",
      "state_name": "Louisiana",
      "agency_name": "Woodworth Police Department",
      "agency_type_name": "City",
      "nibrs_start_date": null
    },
    {
      "ori": "LA0401000",
      "counties": "RAPIDES",
      "is_nibrs": false,
      "latitude": 31.406595,
      "longitude": -92.40997,
      "state_abbr": "LA",
      "state_name": "Louisiana",
      "agency_name": "Ball Police Department",
      "agency_type_name": "City",
      "nibrs_start_date": null
    },
    {
      "ori": "LA0400000",
      "counties": "RAPIDES",
      "is_nibrs": true,
      "latitude": 31.193204,
      "longitude": -92.535953,
      "state_abbr": "LA",
      "state_name": "Louisiana",
      "agency_name": "Rapides Parish Sheriff's Office",
      "agency_type_name": "County",
      "nibrs_start_date": "2007-01-01"
    },
    {
      "ori": "LA0400100",
      "counties": "RAPIDES",
      "is_nibrs": true,
      "latitude": 31.193204,
      "longitude": -92.535953,
      "state_abbr": "LA",
      "state_name": "Louisiana",
      "agency_name": "Alexandria Police Department",
      "agency_type_name": "City",
      "nibrs_start_date": "2021-01-01"
    }
  ],
  "ST MARY": [
    {
      "ori": "LA0510300",
      "counties": "ST MARY",
      "is_nibrs": true,
      "latitude": 29.629349,
      "longitude": -91.463804,
      "state_abbr": "LA",
      "state_name": "Louisiana",
      "agency_name": "Morgan City Police Department",
      "agency_type_name": "City",
      "nibrs_start_date": "2021-01-01"
    },
    {
      "ori": "LA0510000",
      "counties": "ST MARY",
      "is_nibrs": true,
      "latitude": 29.629349,
      "longitude": -91.463804,
      "state_abbr": "LA",
      "state_name": "Louisiana",
      "agency_name": "St. Mary Parish Sheriff's Office",
      "agency_type_name": "County",
      "nibrs_start_date": "2021-01-01"
    },
    {
      "ori": "LA0510100",
      "counties": "ST MARY",
      "is_nibrs": true,
      "latitude": 29.629349,
      "longitude": -91.463804,
      "state_abbr": "LA",
      "state_name": "Louisiana",
      "agency_name": "Berwick Police Department",
      "agency_type_name": "City",
      "nibrs_start_date": "2021-03-01"
    },
    {
      "ori": "LA0510200",
      "counties": "ST MARY",
      "is_nibrs": false,
      "latitude": 29.629349,
      "longitude": -91.463804,
      "state_abbr": "LA",
      "state_name": "Louisiana",
      "agency_name": "Franklin Police Department",
      "agency_type_name": "City",
      "nibrs_start_date": null
    },
    {
      "ori": "LA0510400",
      "counties": "ST MARY",
      "is_nibrs": true,
      "latitude": 29.629349,
      "longitude": -91.463804,
      "state_abbr": "LA",
      "state_name": "Louisiana",
      "agency_name": "Patterson Police Department",
      "agency_type_name": "City",
      "nibrs_start_date": "2021-01-01"
    },
    {
      "ori": "LA0510500",
      "counties": "ST MARY",
      "is_nibrs": false,
      "latitude": 29.629349,
      "longitude": -91.463804,
      "state_abbr": "LA",
      "state_name": "Louisiana",
      "agency_name": "Baldwin Police Department",
      "agency_type_name": "City",
      "nibrs_start_date": null
    }
  ],
  "WEBSTER": [
    {
      "ori": "LA0600700",
      "counties": "WEBSTER",
      "is_nibrs": true,
      "latitude": 32.732152,
      "longitude": -93.339825,
      "state_abbr": "LA",
      "state_name": "Louisiana",
      "agency_name": "Sibley Police Department",
      "agency_type_name": "City",
      "nibrs_start_date": "2020-09-01"
    },
    {
      "ori": "LA0600800",
      "counties": "WEBSTER",
      "is_nibrs": true,
      "latitude": 32.59326,
      "longitude": -93.33438,
      "state_abbr": "LA",
      "state_name": "Louisiana",
      "agency_name": "Dixie Inn Police Department",
      "agency_type_name": "City",
      "nibrs_start_date": "2020-01-01"
    },
    {
      "ori": "LA0600900",
      "counties": "WEBSTER",
      "is_nibrs": true,
      "latitude": null,
      "longitude": null,
      "state_abbr": "LA",
      "state_name": "Louisiana",
      "agency_name": "Heflin",
      "agency_type_name": null,
      "nibrs_start_date": "2020-01-01"
    },
    {
      "ori": "LA0600100",
      "counties": "WEBSTER",
      "is_nibrs": true,
      "latitude": 32.732152,
      "longitude": -93.339825,
      "state_abbr": "LA",
      "state_name": "Louisiana",
      "agency_name": "Minden Police Department",
      "agency_type_name": "City",
      "nibrs_start_date": "2024-01-01"
    },
    {
      "ori": "LA0600200",
      "counties": "WEBSTER",
      "is_nibrs": true,
      "latitude": 33.00477,
      "longitude": -93.46104,
      "state_abbr": "LA",
      "state_name": "Louisiana",
      "agency_name": "Springhill Police Department",
      "agency_type_name": "City",
      "nibrs_start_date": "2020-08-01"
    },
    {
      "ori": "LA0600400",
      "counties": "WEBSTER",
      "is_nibrs": false,
      "latitude": 32.732152,
      "longitude": -93.339825,
      "state_abbr": "LA",
      "state_name": "Louisiana",
      "agency_name": "Cullen Police Department",
      "agency_type_name": "City",
      "nibrs_start_date": null
    },
    {
      "ori": "LA0600000",
      "counties": "WEBSTER",
      "is_nibrs": true,
      "latitude": 32.613876,
      "longitude": -93.28846,
      "state_abbr": "LA",
      "state_name": "Louisiana",
      "agency_name": "Webster Parish Sheriff's Office",
      "agency_type_name": "County",
      "nibrs_start_date": "2021-01-01"
    }
  ],
  "CALDWELL": [
    {
      "ori": "LA0110000",
      "counties": "CALDWELL",
      "is_nibrs": true,
      "latitude": 32.101219,
      "longitude": -92.114231,
      "state_abbr": "LA",
      "state_name": "Louisiana",
      "agency_name": "Caldwell Parish Sheriff's Office",
      "agency_type_name": "County",
      "nibrs_start_date": "2020-08-01"
    }
  ],
  "FRANKLIN": [
    {
      "ori": "LA0210000",
      "counties": "FRANKLIN",
      "is_nibrs": true,
      "latitude": 32.138278,
      "longitude": -91.672101,
      "state_abbr": "LA",
      "state_name": "Louisiana",
      "agency_name": "Franklin Parish Sheriff's Office",
      "agency_type_name": "County",
      "nibrs_start_date": "2021-01-01"
    }
  ],
  "LA SALLE": [
    {
      "ori": "LA0300100",
      "counties": "LA SALLE",
      "is_nibrs": false,
      "latitude": 31.680083,
      "longitude": -92.161596,
      "state_abbr": "LA",
      "state_name": "Louisiana",
      "agency_name": "Jena Police Department",
      "agency_type_name": "City",
      "nibrs_start_date": null
    },
    {
      "ori": "LA0300200",
      "counties": "LA SALLE",
      "is_nibrs": false,
      "latitude": 31.680083,
      "longitude": -92.161596,
      "state_abbr": "LA",
      "state_name": "Louisiana",
      "agency_name": "Olla Police Department",
      "agency_type_name": "City",
      "nibrs_start_date": null
    },
    {
      "ori": "LA0300000",
      "counties": "LA SALLE",
      "is_nibrs": true,
      "latitude": 31.680083,
      "longitude": -92.161596,
      "state_abbr": "LA",
      "state_name": "Louisiana",
      "agency_name": "La Salle Parish Sheriff's Office",
      "agency_type_name": "County",
      "nibrs_start_date": "2021-01-01"
    }
  ],
  "OUACHITA": [
    {
      "ori": "LA0370200",
      "counties": "OUACHITA",
      "is_nibrs": true,
      "latitude": 32.520428,
      "longitude": -92.14767,
      "state_abbr": "LA",
      "state_name": "Louisiana",
      "agency_name": "West Monroe Police Department",
      "agency_type_name": "City",
      "nibrs_start_date": "2014-01-01"
    },
    {
      "ori": "LA0370300",
      "counties": "OUACHITA",
      "is_nibrs": true,
      "latitude": 32.477664,
      "longitude": -92.154848,
      "state_abbr": "LA",
      "state_name": "Louisiana",
      "agency_name": "Sterlington Police Department",
      "agency_type_name": "City",
      "nibrs_start_date": "2006-01-01"
    },
    {
      "ori": "LA0370400",
      "counties": "OUACHITA",
      "is_nibrs": true,
      "latitude": 32.52823,
      "longitude": -92.07567,
      "state_abbr": "LA",
      "state_name": "Louisiana",
      "agency_name": "University of Louisiana: Monroe",
      "agency_type_name": "University or College",
      "nibrs_start_date": "2021-01-01"
    },
    {
      "ori": "LA0370900",
      "counties": "OUACHITA",
      "is_nibrs": true,
      "latitude": 32.477664,
      "longitude": -92.154848,
      "state_abbr": "LA",
      "state_name": "Louisiana",
      "agency_name": "Tensas Basin Levee District",
      "agency_type_name": "Other State Agency",
      "nibrs_start_date": "2019-12-01"
    },
    {
      "ori": "LA0370000",
      "counties": "OUACHITA",
      "is_nibrs": true,
      "latitude": 32.477664,
      "longitude": -92.154848,
      "state_abbr": "LA",
      "state_name": "Louisiana",
      "agency_name": "Ouachita Parish Sheriff's Office",
      "agency_type_name": "County",
      "nibrs_start_date": "2018-02-01"
    },
    {
      "ori": "LA0370100",
      "counties": "OUACHITA",
      "is_nibrs": true,
      "latitude": 32.477664,
      "longitude": -92.154848,
      "state_abbr": "LA",
      "state_name": "Louisiana",
      "agency_name": "Monroe Police Department",
      "agency_type_name": "City",
      "nibrs_start_date": "2017-06-01"
    }
  ],
  "RICHLAND": [
    {
      "ori": "LA0420000",
      "counties": "RICHLAND",
      "is_nibrs": true,
      "latitude": 32.413158,
      "longitude": -91.748353,
      "state_abbr": "LA",
      "state_name": "Louisiana",
      "agency_name": "Richland Parish Sheriff's Office",
      "agency_type_name": "County",
      "nibrs_start_date": "2020-02-01"
    },
    {
      "ori": "LA0420200",
      "counties": "RICHLAND",
      "is_nibrs": true,
      "latitude": 32.413158,
      "longitude": -91.748353,
      "state_abbr": "LA",
      "state_name": "Louisiana",
      "agency_name": "Rayville Police Department",
      "agency_type_name": "City",
      "nibrs_start_date": "2021-01-01"
    }
  ],
  "ST JAMES": [
    {
      "ori": "LA0470000",
      "counties": "ST JAMES",
      "is_nibrs": true,
      "latitude": 30.02482,
      "longitude": -90.793956,
      "state_abbr": "LA",
      "state_name": "Louisiana",
      "agency_name": "St. James Parish Sheriff's Office",
      "agency_type_name": "County",
      "nibrs_start_date": "2008-01-01"
    },
    {
      "ori": "LA0470100",
      "counties": "ST JAMES",
      "is_nibrs": true,
      "latitude": 30.02482,
      "longitude": -90.793956,
      "state_abbr": "LA",
      "state_name": "Louisiana",
      "agency_name": "Lutcher Police Department",
      "agency_type_name": "City",
      "nibrs_start_date": "2020-08-01"
    },
    {
      "ori": "LA0470200",
      "counties": "ST JAMES",
      "is_nibrs": true,
      "latitude": 30.02482,
      "longitude": -90.793956,
      "state_abbr": "LA",
      "state_name": "Louisiana",
      "agency_name": "Gramercy Police Department",
      "agency_type_name": "City",
      "nibrs_start_date": "2017-01-01"
    }
  ],
  "ASCENSION": [
    {
      "ori": "LA0030200",
      "counties": "ASCENSION",
      "is_nibrs": true,
      "latitude": 30.232754,
      "longitude": -90.91382,
      "state_abbr": "LA",
      "state_name": "Louisiana",
      "agency_name": "Gonzales Police Department",
      "agency_type_name": "City",
      "nibrs_start_date": "2011-01-01"
    },
    {
      "ori": "LA0030000",
      "counties": "ASCENSION",
      "is_nibrs": true,
      "latitude": 30.202946,
      "longitude": -90.910023,
      "state_abbr": "LA",
      "state_name": "Louisiana",
      "agency_name": "Ascension Parish Sheriff's Office",
      "agency_type_name": "County",
      "nibrs_start_date": "2003-01-01"
    }
  ],
  "AVOYELLES": [
    {
      "ori": "LA0050100",
      "counties": "AVOYELLES",
      "is_nibrs": false,
      "latitude": 31.085094,
      "longitude": -91.993797,
      "state_abbr": "LA",
      "state_name": "Louisiana",
      "agency_name": "Bunkie Police Department",
      "agency_type_name": "City",
      "nibrs_start_date": null
    },
    {
      "ori": "LA0050200",
      "counties": "AVOYELLES",
      "is_nibrs": true,
      "latitude": 31.12787,
      "longitude": -92.065575,
      "state_abbr": "LA",
      "state_name": "Louisiana",
      "agency_name": "Marksville Police Department",
      "agency_type_name": "City",
      "nibrs_start_date": "2020-12-01"
    },
    {
      "ori": "LA0050300",
      "counties": "AVOYELLES",
      "is_nibrs": false,
      "latitude": 31.085094,
      "longitude": -91.993797,
      "state_abbr": "LA",
      "state_name": "Louisiana",
      "agency_name": "Simmesport Police Department",
      "agency_type_name": "City",
      "nibrs_start_date": null
    },
    {
      "ori": "LA0050400",
      "counties": "AVOYELLES",
      "is_nibrs": false,
      "latitude": 30.985495,
      "longitude": -92.05285,
      "state_abbr": "LA",
      "state_name": "Louisiana",
      "agency_name": "Cottonport Police Department",
      "agency_type_name": "City",
      "nibrs_start_date": null
    },
    {
      "ori": "LA0050600",
      "counties": "AVOYELLES",
      "is_nibrs": false,
      "latitude": 31.085094,
      "longitude": -91.993797,
      "state_abbr": "LA",
      "state_name": "Louisiana",
      "agency_name": "Moreauville Police Department",
      "agency_type_name": "City",
      "nibrs_start_date": null
    },
    {
      "ori": "LA0050000",
      "counties": "AVOYELLES",
      "is_nibrs": false,
      "latitude": 31.115696,
      "longitude": -92.06695,
      "state_abbr": "LA",
      "state_name": "Louisiana",
      "agency_name": "Avoyelles Parish Sheriff's Office",
      "agency_type_name": "County",
      "nibrs_start_date": null
    },
    {
      "ori": "LA0050800",
      "counties": "AVOYELLES",
      "is_nibrs": true,
      "latitude": null,
      "longitude": null,
      "state_abbr": "LA",
      "state_name": "Louisiana",
      "agency_name": "Evergreen",
      "agency_type_name": null,
      "nibrs_start_date": "2020-03-01"
    }
  ],
  "BIENVILLE": [
    {
      "ori": "LA0070000",
      "counties": "BIENVILLE",
      "is_nibrs": true,
      "latitude": 32.340952,
      "longitude": -93.041151,
      "state_abbr": "LA",
      "state_name": "Louisiana",
      "agency_name": "Bienville Parish Sheriff's Office",
      "agency_type_name": "County",
      "nibrs_start_date": "2020-01-01"
    }
  ],
  "CALCASIEU": [
    {
      "ori": "LA0100100",
      "counties": "CALCASIEU",
      "is_nibrs": true,
      "latitude": 30.44986,
      "longitude": -93.43519,
      "state_abbr": "LA",
      "state_name": "Louisiana",
      "agency_name": "De Quincy Police Department",
      "agency_type_name": "City",
      "nibrs_start_date": "2007-01-01"
    },
    {
      "ori": "LA0100200",
      "counties": "CALCASIEU",
      "is_nibrs": true,
      "latitude": 30.229559,
      "longitude": -93.358015,
      "state_abbr": "LA",
      "state_name": "Louisiana",
      "agency_name": "Lake Charles Police Department",
      "agency_type_name": "City",
      "nibrs_start_date": "2019-10-01"
    },
    {
      "ori": "LA0100300",
      "counties": "CALCASIEU",
      "is_nibrs": true,
      "latitude": 30.229559,
      "longitude": -93.358015,
      "state_abbr": "LA",
      "state_name": "Louisiana",
      "agency_name": "Sulphur Police Department",
      "agency_type_name": "City",
      "nibrs_start_date": "2019-04-01"
    },
    {
      "ori": "LA0100400",
      "counties": "CALCASIEU",
      "is_nibrs": true,
      "latitude": 30.19263,
      "longitude": -93.58134,
      "state_abbr": "LA",
      "state_name": "Louisiana",
      "agency_name": "Vinton Police Department",
      "agency_type_name": "City",
      "nibrs_start_date": "2020-07-01"
    },
    {
      "ori": "LA0100500",
      "counties": "CALCASIEU",
      "is_nibrs": true,
      "latitude": 30.229559,
      "longitude": -93.358015,
      "state_abbr": "LA",
      "state_name": "Louisiana",
      "agency_name": "Westlake Police Department",
      "agency_type_name": "City",
      "nibrs_start_date": "2020-09-01"
    },
    {
      "ori": "LA0100700",
      "counties": "CALCASIEU",
      "is_nibrs": true,
      "latitude": 30.229559,
      "longitude": -93.358015,
      "state_abbr": "LA",
      "state_name": "Louisiana",
      "agency_name": "Iowa Police Department",
      "agency_type_name": "City",
      "nibrs_start_date": "2020-07-01"
    },
    {
      "ori": "LA0100800",
      "counties": "CALCASIEU",
      "is_nibrs": true,
      "latitude": 30.229559,
      "longitude": -93.358015,
      "state_abbr": "LA",
      "state_name": "Louisiana",
      "agency_name": "McNeese State University",
      "agency_type_name": "University or College",
      "nibrs_start_date": "2020-04-01"
    },
    {
      "ori": "LA0100000",
      "counties": "CALCASIEU",
      "is_nibrs": true,
      "latitude": 30.227667,
      "longitude": -93.14113,
      "state_abbr": "LA",
      "state_name": "Louisiana",
      "agency_name": "Calcasieu Parish Sheriff's Office",
      "agency_type_name": "County",
      "nibrs_start_date": "2009-01-01"
    }
  ],
  "CATAHOULA": [
    {
      "ori": "LA0130000",
      "counties": "CATAHOULA",
      "is_nibrs": true,
      "latitude": 31.666517,
      "longitude": -91.846703,
      "state_abbr": "LA",
      "state_name": "Louisiana",
      "agency_name": "Catahoula Parish Sheriff's Office",
      "agency_type_name": "County",
      "nibrs_start_date": "2021-01-01"
    }
  ],
  "CLAIBORNE": [
    {
      "ori": "LA0140100",
      "counties": "CLAIBORNE",
      "is_nibrs": true,
      "latitude": 32.827043,
      "longitude": -92.989767,
      "state_abbr": "LA",
      "state_name": "Louisiana",
      "agency_name": "Haynesville Police Department",
      "agency_type_name": "City",
      "nibrs_start_date": "2022-01-01"
    },
    {
      "ori": "LA0140000",
      "counties": "CLAIBORNE",
      "is_nibrs": true,
      "latitude": 32.827043,
      "longitude": -92.989767,
      "state_abbr": "LA",
      "state_name": "Louisiana",
      "agency_name": "Claiborne Parish Sheriff's Office",
      "agency_type_name": "County",
      "nibrs_start_date": "2009-04-01"
    }
  ],
  "CONCORDIA": [
    {
      "ori": "LA0150100",
      "counties": "CONCORDIA",
      "is_nibrs": true,
      "latitude": 31.642176,
      "longitude": -91.55464,
      "state_abbr": "LA",
      "state_name": "Louisiana",
      "agency_name": "Ferriday Police Department",
      "agency_type_name": "City",
      "nibrs_start_date": "2021-12-01"
    },
    {
      "ori": "LA0150200",
      "counties": "CONCORDIA",
      "is_nibrs": true,
      "latitude": 31.469805,
      "longitude": -91.626314,
      "state_abbr": "LA",
      "state_name": "Louisiana",
      "agency_name": "Vidalia Police Department",
      "agency_type_name": "City",
      "nibrs_start_date": "2021-01-01"
    },
    {
      "ori": "LA0150000",
      "counties": "CONCORDIA",
      "is_nibrs": true,
      "latitude": 31.469805,
      "longitude": -91.626314,
      "state_abbr": "LA",
      "state_name": "Louisiana",
      "agency_name": "Concordia Parish Sheriff's Office",
      "agency_type_name": "County",
      "nibrs_start_date": "2021-01-01"
    }
  ],
  "IBERVILLE": [
    {
      "ori": "LA0240200",
      "counties": "IBERVILLE",
      "is_nibrs": true,
      "latitude": 30.288394,
      "longitude": -91.36315,
      "state_abbr": "LA",
      "state_name": "Louisiana",
      "agency_name": "Plaquemine Police Department",
      "agency_type_name": "City",
      "nibrs_start_date": "2004-04-01"
    },
    {
      "ori": "LA0240300",
      "counties": "IBERVILLE",
      "is_nibrs": false,
      "latitude": 30.288394,
      "longitude": -91.36315,
      "state_abbr": "LA",
      "state_name": "Louisiana",
      "agency_name": "White Castle Police Department",
      "agency_type_name": "City",
      "nibrs_start_date": null
    },
    {
      "ori": "LA0240500",
      "counties": "IBERVILLE",
      "is_nibrs": false,
      "latitude": 30.288394,
      "longitude": -91.36315,
      "state_abbr": "LA",
      "state_name": "Louisiana",
      "agency_name": "Rosedale Police Department",
      "agency_type_name": "City",
      "nibrs_start_date": null
    },
    {
      "ori": "LA0240600",
      "counties": "IBERVILLE",
      "is_nibrs": true,
      "latitude": 30.288394,
      "longitude": -91.36315,
      "state_abbr": "LA",
      "state_name": "Louisiana",
      "agency_name": "St. Gabriel Police Department",
      "agency_type_name": "City",
      "nibrs_start_date": "2021-01-01"
    },
    {
      "ori": "LA0240000",
      "counties": "IBERVILLE",
      "is_nibrs": true,
      "latitude": 30.288394,
      "longitude": -91.36315,
      "state_abbr": "LA",
      "state_name": "Louisiana",
      "agency_name": "Iberville Parish Sheriff's Office",
      "agency_type_name": "County",
      "nibrs_start_date": "2020-08-01"
    }
  ],
  "JEFFERSON": [
    {
      "ori": "LA0260100",
      "counties": "JEFFERSON",
      "is_nibrs": true,
      "latitude": 29.677888,
      "longitude": -90.100494,
      "state_abbr": "LA",
      "state_name": "Louisiana",
      "agency_name": "Gretna Police Department",
      "agency_type_name": "City",
      "nibrs_start_date": "2020-01-01"
    },
    {
      "ori": "LA0260200",
      "counties": "JEFFERSON",
      "is_nibrs": true,
      "latitude": 29.93871,
      "longitude": -90.19368,
      "state_abbr": "LA",
      "state_name": "Louisiana",
      "agency_name": "Harahan Police Department",
      "agency_type_name": "City",
      "nibrs_start_date": "2020-04-01"
    },
    {
      "ori": "LA0260000",
      "counties": "JEFFERSON",
      "is_nibrs": true,
      "latitude": 29.677888,
      "longitude": -90.100494,
      "state_abbr": "LA",
      "state_name": "Louisiana",
      "agency_name": "Jefferson Parish Sheriff's Office",
      "agency_type_name": "County",
      "nibrs_start_date": "2020-01-01"
    },
    {
      "ori": "LA0260400",
      "counties": "JEFFERSON",
      "is_nibrs": true,
      "latitude": 29.911531,
      "longitude": -90.14372,
      "state_abbr": "LA",
      "state_name": "Louisiana",
      "agency_name": "Westwego Police Department",
      "agency_type_name": "City",
      "nibrs_start_date": "2020-05-01"
    },
    {
      "ori": "LA0260600",
      "counties": "JEFFERSON",
      "is_nibrs": true,
      "latitude": null,
      "longitude": null,
      "state_abbr": "LA",
      "state_name": "Louisiana",
      "agency_name": "Jean Lafitte",
      "agency_type_name": null,
      "nibrs_start_date": "2021-01-01"
    },
    {
      "ori": "LA0260300",
      "counties": "JEFFERSON",
      "is_nibrs": true,
      "latitude": 29.677888,
      "longitude": -90.100494,
      "state_abbr": "LA",
      "state_name": "Louisiana",
      "agency_name": "Kenner Police Department",
      "agency_type_name": "City",
      "nibrs_start_date": "2020-01-01"
    }
  ],
  "LAFAYETTE": [
    {
      "ori": "LA0280000",
      "counties": "LAFAYETTE",
      "is_nibrs": true,
      "latitude": 30.206507,
      "longitude": -92.06417,
      "state_abbr": "LA",
      "state_name": "Louisiana",
      "agency_name": "Lafayette Parish Sheriff's Office",
      "agency_type_name": "County",
      "nibrs_start_date": "2012-01-01"
    },
    {
      "ori": "LA0280200",
      "counties": "LAFAYETTE",
      "is_nibrs": false,
      "latitude": 30.206507,
      "longitude": -92.06417,
      "state_abbr": "LA",
      "state_name": "Louisiana",
      "agency_name": "Carencro Police Department",
      "agency_type_name": "City",
      "nibrs_start_date": null
    },
    {
      "ori": "LA0280300",
      "counties": "LAFAYETTE",
      "is_nibrs": false,
      "latitude": 30.206507,
      "longitude": -92.06417,
      "state_abbr": "LA",
      "state_name": "Louisiana",
      "agency_name": "Lafayette Police Department",
      "agency_type_name": "City",
      "nibrs_start_date": null
    },
    {
      "ori": "LA0280500",
      "counties": "LAFAYETTE",
      "is_nibrs": false,
      "latitude": 30.206507,
      "longitude": -92.06417,
      "state_abbr": "LA",
      "state_name": "Louisiana",
      "agency_name": "Youngsville Police Department",
      "agency_type_name": "City",
      "nibrs_start_date": null
    },
    {
      "ori": "LA0280600",
      "counties": "LAFAYETTE",
      "is_nibrs": false,
      "latitude": 30.206507,
      "longitude": -92.06417,
      "state_abbr": "LA",
      "state_name": "Louisiana",
      "agency_name": "Scott Police Department",
      "agency_type_name": "City",
      "nibrs_start_date": null
    },
    {
      "ori": "LA0280700",
      "counties": "LAFAYETTE",
      "is_nibrs": false,
      "latitude": 30.206507,
      "longitude": -92.06417,
      "state_abbr": "LA",
      "state_name": "Louisiana",
      "agency_name": "University of Louisiana: Lafayette",
      "agency_type_name": "University or College",
      "nibrs_start_date": null
    },
    {
      "ori": "LA0282000",
      "counties": "LAFAYETTE",
      "is_nibrs": false,
      "latitude": 30.216476,
      "longitude": -92.0526,
      "state_abbr": "LA",
      "state_name": "Louisiana",
      "agency_name": "South Louisiana Community College",
      "agency_type_name": "University or College",
      "nibrs_start_date": null
    }
  ],
  "LAFOURCHE": [
    {
      "ori": "LA0290100",
      "counties": "LAFOURCHE",
      "is_nibrs": true,
      "latitude": 29.491992,
      "longitude": -90.394849,
      "state_abbr": "LA",
      "state_name": "Louisiana",
      "agency_name": "Golden Meadow Police Department",
      "agency_type_name": "City",
      "nibrs_start_date": "2021-01-01"
    },
    {
      "ori": "LA0290500",
      "counties": "LAFOURCHE",
      "is_nibrs": true,
      "latitude": 29.491992,
      "longitude": -90.394849,
      "state_abbr": "LA",
      "state_name": "Louisiana",
      "agency_name": "Thibodaux Police Department",
      "agency_type_name": "City",
      "nibrs_start_date": "2015-01-01"
    },
    {
      "ori": "LA0290600",
      "counties": "LAFOURCHE",
      "is_nibrs": false,
      "latitude": 29.491992,
      "longitude": -90.394849,
      "state_abbr": "LA",
      "state_name": "Louisiana",
      "agency_name": "Nicholls State University",
      "agency_type_name": "University or College",
      "nibrs_start_date": null
    },
    {
      "ori": "LA0290000",
      "counties": "LAFOURCHE",
      "is_nibrs": true,
      "latitude": 29.491992,
      "longitude": -90.394849,
      "state_abbr": "LA",
      "state_name": "Louisiana",
      "agency_name": "Lafourche Parish Sheriff's Office",
      "agency_type_name": "County",
      "nibrs_start_date": "2015-01-01"
    }
  ],
  "MOREHOUSE": [
    {
      "ori": "LA0340000",
      "counties": "MOREHOUSE",
      "is_nibrs": true,
      "latitude": 32.775772,
      "longitude": -91.91325,
      "state_abbr": "LA",
      "state_name": "Louisiana",
      "agency_name": "Morehouse Parish Sheriff's Office",
      "agency_type_name": "County",
      "nibrs_start_date": "2003-01-01"
    },
    {
      "ori": "LA0340100",
      "counties": "MOREHOUSE",
      "is_nibrs": true,
      "latitude": 32.777275,
      "longitude": -91.913185,
      "state_abbr": "LA",
      "state_name": "Louisiana",
      "agency_name": "Bastrop Police Department",
      "agency_type_name": "City",
      "nibrs_start_date": "2021-01-01"
    }
  ],
  "RED RIVER": [
    {
      "ori": "LA0410000",
      "counties": "RED RIVER",
      "is_nibrs": false,
      "latitude": 32.014977,
      "longitude": -93.34033,
      "state_abbr": "LA",
      "state_name": "Louisiana",
      "agency_name": "Red River Parish Sheriff's Office",
      "agency_type_name": "County",
      "nibrs_start_date": null
    },
    {
      "ori": "LA0410100",
      "counties": "RED RIVER",
      "is_nibrs": false,
      "latitude": 32.101213,
      "longitude": -93.34905,
      "state_abbr": "LA",
      "state_name": "Louisiana",
      "agency_name": "Coushatta Police Department",
      "agency_type_name": "City",
      "nibrs_start_date": null
    }
  ],
  "ST HELENA": [
    {
      "ori": "LA0460200",
      "counties": "ST HELENA",
      "is_nibrs": true,
      "latitude": 30.821423,
      "longitude": -90.70935,
      "state_abbr": "LA",
      "state_name": "Louisiana",
      "agency_name": "Montpelier Police Department",
      "agency_type_name": "City",
      "nibrs_start_date": "2021-01-01"
    },
    {
      "ori": "LA0460000",
      "counties": "ST HELENA",
      "is_nibrs": true,
      "latitude": 30.821423,
      "longitude": -90.70935,
      "state_abbr": "LA",
      "state_name": "Louisiana",
      "agency_name": "St. Helena Parish Sheriff's Office",
      "agency_type_name": "County",
      "nibrs_start_date": "2013-01-01"
    },
    {
      "ori": "LA0460100",
      "counties": "ST HELENA",
      "is_nibrs": true,
      "latitude": 30.821423,
      "longitude": -90.70935,
      "state_abbr": "LA",
      "state_name": "Louisiana",
      "agency_name": "Greensburg Police Department",
      "agency_type_name": "City",
      "nibrs_start_date": "2020-12-01"
    }
  ],
  "ST LANDRY": [
    {
      "ori": "LA0490700",
      "counties": "ST LANDRY",
      "is_nibrs": false,
      "latitude": null,
      "longitude": null,
      "state_abbr": "LA",
      "state_name": "Louisiana",
      "agency_name": "Melville",
      "agency_type_name": null,
      "nibrs_start_date": null
    },
    {
      "ori": "LA0490800",
      "counties": "ST LANDRY",
      "is_nibrs": true,
      "latitude": 30.583441,
      "longitude": -91.989274,
      "state_abbr": "LA",
      "state_name": "Louisiana",
      "agency_name": "Krotz Springs Police Department",
      "agency_type_name": "City",
      "nibrs_start_date": "2017-08-01"
    },
    {
      "ori": "LA0490000",
      "counties": "ST LANDRY",
      "is_nibrs": true,
      "latitude": 30.534416,
      "longitude": -92.08396,
      "state_abbr": "LA",
      "state_name": "Louisiana",
      "agency_name": "St. Landry Parish Sheriff's Office",
      "agency_type_name": "County",
      "nibrs_start_date": "2021-01-01"
    },
    {
      "ori": "LA0491300",
      "counties": "ST LANDRY",
      "is_nibrs": true,
      "latitude": 30.583441,
      "longitude": -91.989274,
      "state_abbr": "LA",
      "state_name": "Louisiana",
      "agency_name": "Louisiana State University: Eunice",
      "agency_type_name": "University or College",
      "nibrs_start_date": "2020-02-01"
    },
    {
      "ori": "LA0490200",
      "counties": "ST LANDRY",
      "is_nibrs": true,
      "latitude": 30.53644,
      "longitude": -92.08239,
      "state_abbr": "LA",
      "state_name": "Louisiana",
      "agency_name": "Opelousas Police Department",
      "agency_type_name": "City",
      "nibrs_start_date": "2021-01-01"
    },
    {
      "ori": "LA0490500",
      "counties": "ST LANDRY",
      "is_nibrs": false,
      "latitude": 30.583441,
      "longitude": -91.989274,
      "state_abbr": "LA",
      "state_name": "Louisiana",
      "agency_name": "Washington Police Department",
      "agency_type_name": "City",
      "nibrs_start_date": null
    },
    {
      "ori": "LA0490600",
      "counties": "ST LANDRY",
      "is_nibrs": false,
      "latitude": 30.583441,
      "longitude": -91.989274,
      "state_abbr": "LA",
      "state_name": "Louisiana",
      "agency_name": "Port Barre Police Department",
      "agency_type_name": "City",
      "nibrs_start_date": null
    }
  ],
  "ST MARTIN": [
    {
      "ori": "LA0500200",
      "counties": "ST MARTIN",
      "is_nibrs": false,
      "latitude": 30.121433,
      "longitude": -91.611481,
      "state_abbr": "LA",
      "state_name": "Louisiana",
      "agency_name": "St. Martinville Police Department",
      "agency_type_name": "City",
      "nibrs_start_date": null
    },
    {
      "ori": "LA0500100",
      "counties": "ST MARTIN",
      "is_nibrs": false,
      "latitude": 30.121433,
      "longitude": -91.611481,
      "state_abbr": "LA",
      "state_name": "Louisiana",
      "agency_name": "Breaux Bridge Police Department",
      "agency_type_name": "City",
      "nibrs_start_date": null
    },
    {
      "ori": "LA0500000",
      "counties": "ST MARTIN",
      "is_nibrs": true,
      "latitude": 30.121433,
      "longitude": -91.611481,
      "state_abbr": "LA",
      "state_name": "Louisiana",
      "agency_name": "St. Martin Parish Sheriff's Office",
      "agency_type_name": "County",
      "nibrs_start_date": "2021-01-01"
    }
  ],
  "VERMILION": [
    {
      "ori": "LA0570400",
      "counties": "VERMILION",
      "is_nibrs": true,
      "latitude": 29.956594,
      "longitude": -92.0347,
      "state_abbr": "LA",
      "state_name": "Louisiana",
      "agency_name": "Erath Police Department",
      "agency_type_name": "City",
      "nibrs_start_date": "2020-04-01"
    },
    {
      "ori": "LA0570200",
      "counties": "VERMILION",
      "is_nibrs": false,
      "latitude": 30.00095,
      "longitude": -92.28434,
      "state_abbr": "LA",
      "state_name": "Louisiana",
      "agency_name": "Kaplan Police Department",
      "agency_type_name": "City",
      "nibrs_start_date": null
    },
    {
      "ori": "LA0570100",
      "counties": "VERMILION",
      "is_nibrs": true,
      "latitude": 29.786872,
      "longitude": -92.29009,
      "state_abbr": "LA",
      "state_name": "Louisiana",
      "agency_name": "Abbeville Police Department",
      "agency_type_name": "City",
      "nibrs_start_date": "2020-12-01"
    },
    {
      "ori": "LA0570000",
      "counties": "VERMILION",
      "is_nibrs": true,
      "latitude": 29.786872,
      "longitude": -92.29009,
      "state_abbr": "LA",
      "state_name": "Louisiana",
      "agency_name": "Vermilion Parish Sheriff's Office",
      "agency_type_name": "County",
      "nibrs_start_date": "2021-01-01"
    }
  ],
  "ASSUMPTION": [
    {
      "ori": "LA0040000",
      "counties": "ASSUMPTION",
      "is_nibrs": false,
      "latitude": 29.899884,
      "longitude": -91.050528,
      "state_abbr": "LA",
      "state_name": "Louisiana",
      "agency_name": "Assumption Parish Sheriff's Office",
      "agency_type_name": "County",
      "nibrs_start_date": null
    }
  ],
  "BEAUREGARD": [
    {
      "ori": "LA0060200",
      "counties": "BEAUREGARD",
      "is_nibrs": false,
      "latitude": 30.645018,
      "longitude": -93.340253,
      "state_abbr": "LA",
      "state_name": "Louisiana",
      "agency_name": "Merryville Police Department",
      "agency_type_name": "City",
      "nibrs_start_date": null
    },
    {
      "ori": "LA0060000",
      "counties": "BEAUREGARD",
      "is_nibrs": true,
      "latitude": 30.645018,
      "longitude": -93.340253,
      "state_abbr": "LA",
      "state_name": "Louisiana",
      "agency_name": "Beauregard Parish Sheriff's Office",
      "agency_type_name": "County",
      "nibrs_start_date": "2021-01-01"
    }
  ],
  "EVANGELINE": [
    {
      "ori": "LA0200100",
      "counties": "EVANGELINE",
      "is_nibrs": true,
      "latitude": 30.720693,
      "longitude": -92.404086,
      "state_abbr": "LA",
      "state_name": "Louisiana",
      "agency_name": "Basile Police Department",
      "agency_type_name": "City",
      "nibrs_start_date": "2004-01-01"
    },
    {
      "ori": "LA0200200",
      "counties": "EVANGELINE",
      "is_nibrs": true,
      "latitude": 30.720693,
      "longitude": -92.404086,
      "state_abbr": "LA",
      "state_name": "Louisiana",
      "agency_name": "Mamou Police Department",
      "agency_type_name": "City",
      "nibrs_start_date": "2003-09-01"
    },
    {
      "ori": "LA0200300",
      "counties": "EVANGELINE",
      "is_nibrs": false,
      "latitude": 30.720693,
      "longitude": -92.404086,
      "state_abbr": "LA",
      "state_name": "Louisiana",
      "agency_name": "Ville Platte Police Department",
      "agency_type_name": "City",
      "nibrs_start_date": null
    },
    {
      "ori": "LA0200600",
      "counties": "EVANGELINE",
      "is_nibrs": true,
      "latitude": null,
      "longitude": null,
      "state_abbr": "LA",
      "state_name": "Louisiana",
      "agency_name": "Chataignier",
      "agency_type_name": null,
      "nibrs_start_date": "2022-02-01"
    },
    {
      "ori": "LA0200000",
      "counties": "EVANGELINE",
      "is_nibrs": true,
      "latitude": 30.689276,
      "longitude": -92.278015,
      "state_abbr": "LA",
      "state_name": "Louisiana",
      "agency_name": "Evangeline Parish Sheriff's Office",
      "agency_type_name": "County",
      "nibrs_start_date": "2008-01-01"
    }
  ],
  "LIVINGSTON": [
    {
      "ori": "LA0320100",
      "counties": "LIVINGSTON",
      "is_nibrs": false,
      "latitude": 30.440419,
      "longitude": -90.727474,
      "state_abbr": "LA",
      "state_name": "Louisiana",
      "agency_name": "Denham Springs Police Department",
      "agency_type_name": "City",
      "nibrs_start_date": null
    },
    {
      "ori": "LA0320200",
      "counties": "LIVINGSTON",
      "is_nibrs": true,
      "latitude": 30.440419,
      "longitude": -90.727474,
      "state_abbr": "LA",
      "state_name": "Louisiana",
      "agency_name": "Livingston Police Department",
      "agency_type_name": "City",
      "nibrs_start_date": "2022-01-01"
    },
    {
      "ori": "LA0320300",
      "counties": "LIVINGSTON",
      "is_nibrs": true,
      "latitude": 30.440419,
      "longitude": -90.727474,
      "state_abbr": "LA",
      "state_name": "Louisiana",
      "agency_name": "Walker Police Department",
      "agency_type_name": "City",
      "nibrs_start_date": "2021-01-01"
    },
    {
      "ori": "LA0320000",
      "counties": "LIVINGSTON",
      "is_nibrs": true,
      "latitude": 30.440419,
      "longitude": -90.727474,
      "state_abbr": "LA",
      "state_name": "Louisiana",
      "agency_name": "Livingston Parish Sheriff's Office",
      "agency_type_name": "County",
      "nibrs_start_date": "2021-01-01"
    }
  ],
  "ST BERNARD": [
    {
      "ori": "LA0440000",
      "counties": "ST BERNARD",
      "is_nibrs": true,
      "latitude": 29.91811,
      "longitude": -89.263494,
      "state_abbr": "LA",
      "state_name": "Louisiana",
      "agency_name": "St. Bernard Parish Sheriff's Office",
      "agency_type_name": "County",
      "nibrs_start_date": "2021-01-01"
    }
  ],
  "ST CHARLES": [
    {
      "ori": "LA0450000",
      "counties": "ST CHARLES",
      "is_nibrs": true,
      "latitude": 29.905722,
      "longitude": -90.357855,
      "state_abbr": "LA",
      "state_name": "Louisiana",
      "agency_name": "St. Charles Parish Sheriff's Office",
      "agency_type_name": "County",
      "nibrs_start_date": "2020-01-01"
    }
  ],
  "ST TAMMANY": [
    {
      "ori": "LA0520200",
      "counties": "ST TAMMANY",
      "is_nibrs": true,
      "latitude": 30.274563,
      "longitude": -89.78045,
      "state_abbr": "LA",
      "state_name": "Louisiana",
      "agency_name": "Slidell Police Department",
      "agency_type_name": "City",
      "nibrs_start_date": "2021-01-01"
    },
    {
      "ori": "LA0520000",
      "counties": "ST TAMMANY",
      "is_nibrs": true,
      "latitude": 30.410022,
      "longitude": -89.951962,
      "state_abbr": "LA",
      "state_name": "Louisiana",
      "agency_name": "St. Tammany Parish Sheriff's Office",
      "agency_type_name": "County",
      "nibrs_start_date": "2019-01-01"
    },
    {
      "ori": "LA0520100",
      "counties": "ST TAMMANY",
      "is_nibrs": true,
      "latitude": 30.478825,
      "longitude": -90.09637,
      "state_abbr": "LA",
      "state_name": "Louisiana",
      "agency_name": "Covington Police Department",
      "agency_type_name": "City",
      "nibrs_start_date": "2022-01-01"
    },
    {
      "ori": "LA0520300",
      "counties": "ST TAMMANY",
      "is_nibrs": true,
      "latitude": 30.362373,
      "longitude": -90.05933,
      "state_abbr": "LA",
      "state_name": "Louisiana",
      "agency_name": "Mandeville Police Department",
      "agency_type_name": "City",
      "nibrs_start_date": "2021-01-01"
    },
    {
      "ori": "LA0520700",
      "counties": "ST TAMMANY",
      "is_nibrs": false,
      "latitude": 30.410022,
      "longitude": -89.951962,
      "state_abbr": "LA",
      "state_name": "Louisiana",
      "agency_name": "Folsom Police Department",
      "agency_type_name": "City",
      "nibrs_start_date": null
    },
    {
      "ori": "LA0520500",
      "counties": "ST TAMMANY",
      "is_nibrs": true,
      "latitude": 30.410022,
      "longitude": -89.951962,
      "state_abbr": "LA",
      "state_name": "Louisiana",
      "agency_name": "Pearl River Police Department",
      "agency_type_name": "City",
      "nibrs_start_date": "2021-01-01"
    }
  ],
  "TANGIPAHOA": [
    {
      "ori": "LA0530600",
      "counties": "TANGIPAHOA",
      "is_nibrs": false,
      "latitude": 30.621581,
      "longitude": -90.406633,
      "state_abbr": "LA",
      "state_name": "Louisiana",
      "agency_name": "Roseland Police Department",
      "agency_type_name": "City",
      "nibrs_start_date": null
    },
    {
      "ori": "LA0530800",
      "counties": "TANGIPAHOA",
      "is_nibrs": true,
      "latitude": 30.621581,
      "longitude": -90.406633,
      "state_abbr": "LA",
      "state_name": "Louisiana",
      "agency_name": "Tickfaw Police Department",
      "agency_type_name": "City",
      "nibrs_start_date": "2015-01-01"
    },
    {
      "ori": "LA0530900",
      "counties": "TANGIPAHOA",
      "is_nibrs": true,
      "latitude": 30.621581,
      "longitude": -90.406633,
      "state_abbr": "LA",
      "state_name": "Louisiana",
      "agency_name": "Southeastern Louisiana University",
      "agency_type_name": "University or College",
      "nibrs_start_date": "2003-01-01"
    },
    {
      "ori": "LA0530000",
      "counties": "TANGIPAHOA",
      "is_nibrs": true,
      "latitude": 30.621581,
      "longitude": -90.406633,
      "state_abbr": "LA",
      "state_name": "Louisiana",
      "agency_name": "Tangipahoa Parish Sheriff's Office",
      "agency_type_name": "County",
      "nibrs_start_date": "2021-01-01"
    },
    {
      "ori": "LA0530100",
      "counties": "TANGIPAHOA",
      "is_nibrs": true,
      "latitude": 30.621581,
      "longitude": -90.406633,
      "state_abbr": "LA",
      "state_name": "Louisiana",
      "agency_name": "Hammond Police Department",
      "agency_type_name": "City",
      "nibrs_start_date": "2021-01-01"
    },
    {
      "ori": "LA0530200",
      "counties": "TANGIPAHOA",
      "is_nibrs": false,
      "latitude": 30.621581,
      "longitude": -90.406633,
      "state_abbr": "LA",
      "state_name": "Louisiana",
      "agency_name": "Kentwood Police Department",
      "agency_type_name": "City",
      "nibrs_start_date": null
    },
    {
      "ori": "LA0530300",
      "counties": "TANGIPAHOA",
      "is_nibrs": true,
      "latitude": 30.440071,
      "longitude": -90.44209,
      "state_abbr": "LA",
      "state_name": "Louisiana",
      "agency_name": "Ponchatoula Police Department",
      "agency_type_name": "City",
      "nibrs_start_date": "2021-01-01"
    },
    {
      "ori": "LA0530400",
      "counties": "TANGIPAHOA",
      "is_nibrs": false,
      "latitude": 30.726677,
      "longitude": -90.508224,
      "state_abbr": "LA",
      "state_name": "Louisiana",
      "agency_name": "Amite Police Department",
      "agency_type_name": "City",
      "nibrs_start_date": null
    },
    {
      "ori": "LA0530500",
      "counties": "TANGIPAHOA",
      "is_nibrs": true,
      "latitude": 30.621581,
      "longitude": -90.406633,
      "state_abbr": "LA",
      "state_name": "Louisiana",
      "agency_name": "Independence Police Department",
      "agency_type_name": "City",
      "nibrs_start_date": "2022-07-01"
    }
  ],
  "TERREBONNE": [
    {
      "ori": "LA0550100",
      "counties": "TERREBONNE",
      "is_nibrs": true,
      "latitude": 29.333258,
      "longitude": -90.844212,
      "state_abbr": "LA",
      "state_name": "Louisiana",
      "agency_name": "Houma Police Department",
      "agency_type_name": "City",
      "nibrs_start_date": "2020-11-01"
    },
    {
      "ori": "LA0550000",
      "counties": "TERREBONNE",
      "is_nibrs": true,
      "latitude": 29.333258,
      "longitude": -90.844212,
      "state_abbr": "LA",
      "state_name": "Louisiana",
      "agency_name": "Terrebonne Parish Sheriff's Office",
      "agency_type_name": "County",
      "nibrs_start_date": "2020-09-01"
    }
  ],
  "WASHINGTON": [
    {
      "ori": "LA0590000",
      "counties": "WASHINGTON",
      "is_nibrs": true,
      "latitude": 30.852144,
      "longitude": -90.046253,
      "state_abbr": "LA",
      "state_name": "Louisiana",
      "agency_name": "Washington Parish Sheriff's Office",
      "agency_type_name": "County",
      "nibrs_start_date": "2021-01-01"
    },
    {
      "ori": "LA0590100",
      "counties": "WASHINGTON",
      "is_nibrs": true,
      "latitude": 30.7865,
      "longitude": -89.86042,
      "state_abbr": "LA",
      "state_name": "Louisiana",
      "agency_name": "Bogalusa Police Department",
      "agency_type_name": "City",
      "nibrs_start_date": "2007-12-01"
    },
    {
      "ori": "LA0590200",
      "counties": "WASHINGTON",
      "is_nibrs": false,
      "latitude": 30.853376,
      "longitude": -90.15753,
      "state_abbr": "LA",
      "state_name": "Louisiana",
      "agency_name": "Franklinton Police Department",
      "agency_type_name": "City",
      "nibrs_start_date": null
    }
  ],
  "PLAQUEMINES": [
    {
      "ori": "LA0380000",
      "counties": "PLAQUEMINES",
      "is_nibrs": true,
      "latitude": 29.856598,
      "longitude": -89.98403,
      "state_abbr": "LA",
      "state_name": "Louisiana",
      "agency_name": "Plaquemines Parish Sheriff's Office",
      "agency_type_name": "County",
      "nibrs_start_date": "2004-10-01"
    }
  ],
  "EAST CARROLL": [
    {
      "ori": "LA0180000",
      "counties": "EAST CARROLL",
      "is_nibrs": true,
      "latitude": 32.803864,
      "longitude": -91.172714,
      "state_abbr": "LA",
      "state_name": "Louisiana",
      "agency_name": "East Carroll Parish Sheriff's Office",
      "agency_type_name": "County",
      "nibrs_start_date": "2003-01-01"
    },
    {
      "ori": "LA0180100",
      "counties": "EAST CARROLL",
      "is_nibrs": true,
      "latitude": 32.73017,
      "longitude": -91.234141,
      "state_abbr": "LA",
      "state_name": "Louisiana",
      "agency_name": "Lake Providence Police Department",
      "agency_type_name": "City",
      "nibrs_start_date": "2021-01-01"
    }
  ],
  "NATCHITOCHES": [
    {
      "ori": "LA0350000",
      "counties": "NATCHITOCHES",
      "is_nibrs": true,
      "latitude": 31.761036,
      "longitude": -93.087906,
      "state_abbr": "LA",
      "state_name": "Louisiana",
      "agency_name": "Natchitoches Parish Sheriff's Office",
      "agency_type_name": "County",
      "nibrs_start_date": "2023-03-01"
    },
    {
      "ori": "LA0351000",
      "counties": "NATCHITOCHES",
      "is_nibrs": false,
      "latitude": 31.734982,
      "longitude": -93.086106,
      "state_abbr": "LA",
      "state_name": "Louisiana",
      "agency_name": "Northwestern State University",
      "agency_type_name": "University or College",
      "nibrs_start_date": null
    },
    {
      "ori": "LA0350100",
      "counties": "NATCHITOCHES",
      "is_nibrs": true,
      "latitude": 31.734982,
      "longitude": -93.086106,
      "state_abbr": "LA",
      "state_name": "Louisiana",
      "agency_name": "Natchitoches Police Department",
      "agency_type_name": "City",
      "nibrs_start_date": "2024-01-01"
    }
  ],
  "WEST CARROLL": [
    {
      "ori": "LA0620000",
      "counties": "WEST CARROLL",
      "is_nibrs": true,
      "latitude": 32.79248,
      "longitude": -91.451998,
      "state_abbr": "LA",
      "state_name": "Louisiana",
      "agency_name": "West Carroll Parish Sheriff's Office",
      "agency_type_name": "County",
      "nibrs_start_date": "2021-01-01"
    },
    {
      "ori": "LA0620100",
      "counties": "WEST CARROLL",
      "is_nibrs": true,
      "latitude": 32.79248,
      "longitude": -91.451998,
      "state_abbr": "LA",
      "state_name": "Louisiana",
      "agency_name": "Oak Grove Police Department",
      "agency_type_name": "City",
      "nibrs_start_date": "2023-01-01"
    }
  ],
  "NOT SPECIFIED": [
    {
      "ori": "LADI00600",
      "counties": "NOT SPECIFIED",
      "is_nibrs": true,
      "latitude": 30.269529,
      "longitude": -92.816221,
      "state_abbr": "LA",
      "state_name": "Louisiana",
      "agency_name": "Coushatta Tribal",
      "agency_type_name": "Tribal",
      "nibrs_start_date": "2021-01-01"
    },
    {
      "ori": "LA0510600",
      "counties": "NOT SPECIFIED",
      "is_nibrs": true,
      "latitude": 29.629349,
      "longitude": -91.463804,
      "state_abbr": "LA",
      "state_name": "Louisiana",
      "agency_name": "Chitimacha Tribal",
      "agency_type_name": "Tribal",
      "nibrs_start_date": "2020-12-01"
    },
    {
      "ori": "LADI00500",
      "counties": "NOT SPECIFIED",
      "is_nibrs": true,
      "latitude": 31.085094,
      "longitude": -91.993797,
      "state_abbr": "LA",
      "state_name": "Louisiana",
      "agency_name": "Tunica-Biloxi Tribal",
      "agency_type_name": "Tribal",
      "nibrs_start_date": "2020-11-01"
    }
  ],
  "POINTE COUPEE": [
    {
      "ori": "LA0390100",
      "counties": "POINTE COUPEE",
      "is_nibrs": false,
      "latitude": 30.708319,
      "longitude": -91.604621,
      "state_abbr": "LA",
      "state_name": "Louisiana",
      "agency_name": "New Roads Police Department",
      "agency_type_name": "City",
      "nibrs_start_date": null
    },
    {
      "ori": "LA0390000",
      "counties": "POINTE COUPEE",
      "is_nibrs": true,
      "latitude": 30.708319,
      "longitude": -91.604621,
      "state_abbr": "LA",
      "state_name": "Louisiana",
      "agency_name": "Pointe Coupee Parish Sheriff's Office",
      "agency_type_name": "County",
      "nibrs_start_date": "2021-01-01"
    }
  ],
  "BOSSIER, CADDO": [
    {
      "ori": "LA0090100",
      "counties": "BOSSIER, CADDO",
      "is_nibrs": false,
      "latitude": 32.501125,
      "longitude": -93.754555,
      "state_abbr": "LA",
      "state_name": "Louisiana",
      "agency_name": "Shreveport Police Department",
      "agency_type_name": "City",
      "nibrs_start_date": null
    }
  ],
  "EAST FELICIANA": [
    {
      "ori": "LA0190300",
      "counties": "EAST FELICIANA",
      "is_nibrs": true,
      "latitude": 30.839784,
      "longitude": -91.043434,
      "state_abbr": "LA",
      "state_name": "Louisiana",
      "agency_name": "Wilson Police Department",
      "agency_type_name": "City",
      "nibrs_start_date": "2021-01-01"
    },
    {
      "ori": "LA0190500",
      "counties": "EAST FELICIANA",
      "is_nibrs": true,
      "latitude": 30.839784,
      "longitude": -91.043434,
      "state_abbr": "LA",
      "state_name": "Louisiana",
      "agency_name": "Norwood Police Department",
      "agency_type_name": "City",
      "nibrs_start_date": "2020-10-01"
    },
    {
      "ori": "LA0190000",
      "counties": "EAST FELICIANA",
      "is_nibrs": true,
      "latitude": 30.839784,
      "longitude": -91.043434,
      "state_abbr": "LA",
      "state_name": "Louisiana",
      "agency_name": "East Feliciana Parish Sheriff's Office",
      "agency_type_name": "County",
      "nibrs_start_date": "2020-03-01"
    },
    {
      "ori": "LA0190100",
      "counties": "EAST FELICIANA",
      "is_nibrs": true,
      "latitude": 30.839784,
      "longitude": -91.043434,
      "state_abbr": "LA",
      "state_name": "Louisiana",
      "agency_name": "Clinton Police Department",
      "agency_type_name": "City",
      "nibrs_start_date": "2021-01-01"
    }
  ],
  "WEST FELICIANA": [
    {
      "ori": "LA0630000",
      "counties": "WEST FELICIANA",
      "is_nibrs": true,
      "latitude": 30.872701,
      "longitude": -91.421008,
      "state_abbr": "LA",
      "state_name": "Louisiana",
      "agency_name": "West Feliciana Parish Sheriff's Office",
      "agency_type_name": "County",
      "nibrs_start_date": "2021-01-01"
    }
  ],
  "JEFFERSON DAVIS": [
    {
      "ori": "LA0270200",
      "counties": "JEFFERSON DAVIS",
      "is_nibrs": true,
      "latitude": 30.269529,
      "longitude": -92.816221,
      "state_abbr": "LA",
      "state_name": "Louisiana",
      "agency_name": "Jennings Police Department",
      "agency_type_name": "City",
      "nibrs_start_date": "2010-01-01"
    },
    {
      "ori": "LA0270000",
      "counties": "JEFFERSON DAVIS",
      "is_nibrs": true,
      "latitude": 30.222612,
      "longitude": -92.65572,
      "state_abbr": "LA",
      "state_name": "Louisiana",
      "agency_name": "Jefferson Davis Parish Sheriff's Office",
      "agency_type_name": "County",
      "nibrs_start_date": "2007-01-01"
    },
    {
      "ori": "LA0270300",
      "counties": "JEFFERSON DAVIS",
      "is_nibrs": true,
      "latitude": 30.269529,
      "longitude": -92.816221,
      "state_abbr": "LA",
      "state_name": "Louisiana",
      "agency_name": "Lake Arthur Police Department",
      "agency_type_name": "City",
      "nibrs_start_date": "2023-01-01"
    },
    {
      "ori": "LA0270400",
      "counties": "JEFFERSON DAVIS",
      "is_nibrs": false,
      "latitude": 30.269529,
      "longitude": -92.816221,
      "state_abbr": "LA",
      "state_name": "Louisiana",
      "agency_name": "Welsh Police Department",
      "agency_type_name": "City",
      "nibrs_start_date": null
    }
  ],
  "UNMAPPED COUNTY": [
    {
      "ori": "LALSP0000",
      "counties": "UNMAPPED COUNTY",
      "is_nibrs": false,
      "latitude": 30.544002,
      "longitude": -91.093174,
      "state_abbr": "LA",
      "state_name": "Louisiana",
      "agency_name": "State Police",
      "agency_type_name": "State Police",
      "nibrs_start_date": null
    }
  ],
  "EAST BATON ROUGE": [
    {
      "ori": "LA0170600",
      "counties": "EAST BATON ROUGE",
      "is_nibrs": false,
      "latitude": 30.544002,
      "longitude": -91.093174,
      "state_abbr": "LA",
      "state_name": "Louisiana",
      "agency_name": "Southern University and A&M College: Baton Rouge",
      "agency_type_name": "University or College",
      "nibrs_start_date": null
    },
    {
      "ori": "LA0170000",
      "counties": "EAST BATON ROUGE",
      "is_nibrs": true,
      "latitude": 30.446917,
      "longitude": -91.18758,
      "state_abbr": "LA",
      "state_name": "Louisiana",
      "agency_name": "East Baton Rouge Parish Sheriff's Office",
      "agency_type_name": "County",
      "nibrs_start_date": "2021-01-01"
    },
    {
      "ori": "LA0170100",
      "counties": "EAST BATON ROUGE",
      "is_nibrs": true,
      "latitude": 30.589071,
      "longitude": -91.165436,
      "state_abbr": "LA",
      "state_name": "Louisiana",
      "agency_name": "Baker Police Department",
      "agency_type_name": "City",
      "nibrs_start_date": "2003-01-01"
    },
    {
      "ori": "LA0170200",
      "counties": "EAST BATON ROUGE",
      "is_nibrs": true,
      "latitude": 30.544002,
      "longitude": -91.093174,
      "state_abbr": "LA",
      "state_name": "Louisiana",
      "agency_name": "Baton Rouge Police Department",
      "agency_type_name": "City",
      "nibrs_start_date": "2021-01-01"
    },
    {
      "ori": "LA0170300",
      "counties": "EAST BATON ROUGE",
      "is_nibrs": true,
      "latitude": 30.544002,
      "longitude": -91.093174,
      "state_abbr": "LA",
      "state_name": "Louisiana",
      "agency_name": "Zachary Police Department",
      "agency_type_name": "City",
      "nibrs_start_date": "2021-01-01"
    },
    {
      "ori": "LA0170400",
      "counties": "EAST BATON ROUGE",
      "is_nibrs": true,
      "latitude": 30.544002,
      "longitude": -91.093174,
      "state_abbr": "LA",
      "state_name": "Louisiana",
      "agency_name": "Louisiana State University: Baton Rouge",
      "agency_type_name": "University or College",
      "nibrs_start_date": "2021-01-01"
    },
    {
      "ori": "LA0171100",
      "counties": "EAST BATON ROUGE",
      "is_nibrs": false,
      "latitude": 30.544002,
      "longitude": -91.093174,
      "state_abbr": "LA",
      "state_name": "Louisiana",
      "agency_name": "Department of Public Safety State Capitol Detail",
      "agency_type_name": "Other State Agency",
      "nibrs_start_date": null
    }
  ],
  "WEST BATON ROUGE": [
    {
      "ori": "LA0610200",
      "counties": "WEST BATON ROUGE",
      "is_nibrs": true,
      "latitude": 30.464052,
      "longitude": -91.309808,
      "state_abbr": "LA",
      "state_name": "Louisiana",
      "agency_name": "Brusly Police Department",
      "agency_type_name": "City",
      "nibrs_start_date": "2021-01-01"
    },
    {
      "ori": "LA0610000",
      "counties": "WEST BATON ROUGE",
      "is_nibrs": true,
      "latitude": 30.464052,
      "longitude": -91.309808,
      "state_abbr": "LA",
      "state_name": "Louisiana",
      "agency_name": "West Baton Rouge Parish Sheriff's Office",
      "agency_type_name": "County",
      "nibrs_start_date": "2018-08-01"
    },
    {
      "ori": "LA0610300",
      "counties": "WEST BATON ROUGE",
      "is_nibrs": true,
      "latitude": 30.464052,
      "longitude": -91.309808,
      "state_abbr": "LA",
      "state_name": "Louisiana",
      "agency_name": "Addis Police Department",
      "agency_type_name": "City",
      "nibrs_start_date": "2021-01-01"
    },
    {
      "ori": "LA0610100",
      "counties": "WEST BATON ROUGE",
      "is_nibrs": true,
      "latitude": 30.464052,
      "longitude": -91.309808,
      "state_abbr": "LA",
      "state_name": "Louisiana",
      "agency_name": "Port Allen Police Department",
      "agency_type_name": "City",
      "nibrs_start_date": "2007-01-01"
    }
  ],
  "ACADIA, ST LANDRY": [
    {
      "ori": "LA0490100",
      "counties": "ACADIA, ST LANDRY",
      "is_nibrs": false,
      "latitude": 30.492622,
      "longitude": -92.41631,
      "state_abbr": "LA",
      "state_name": "Louisiana",
      "agency_name": "Eunice Police Department",
      "agency_type_name": "City",
      "nibrs_start_date": null
    }
  ],
  "BEAUREGARD, VERNON": [
    {
      "ori": "LA0060100",
      "counties": "BEAUREGARD, VERNON",
      "is_nibrs": true,
      "latitude": 30.845575,
      "longitude": -93.28573,
      "state_abbr": "LA",
      "state_name": "Louisiana",
      "agency_name": "De Ridder Police Department",
      "agency_type_name": "City",
      "nibrs_start_date": "2021-01-01"
    }
  ],
  "ST JOHN THE BAPTIST": [
    {
      "ori": "LA0480000",
      "counties": "ST JOHN THE BAPTIST",
      "is_nibrs": true,
      "latitude": 30.147307,
      "longitude": -90.485674,
      "state_abbr": "LA",
      "state_name": "Louisiana",
      "agency_name": "St. John the Baptist Parish Sheriff's Office",
      "agency_type_name": "County",
      "nibrs_start_date": "2015-01-01"
    }
  ],
  "LAFAYETTE, ST MARTIN": [
    {
      "ori": "LA0280100",
      "counties": "LAFAYETTE, ST MARTIN",
      "is_nibrs": true,
      "latitude": 30.147108,
      "longitude": -91.96057,
      "state_abbr": "LA",
      "state_name": "Louisiana",
      "agency_name": "Broussard Police Department",
      "agency_type_name": "City",
      "nibrs_start_date": "2021-01-01"
    }
  ],
  "ST LANDRY, ST MARTIN": [
    {
      "ori": "LA0490300",
      "counties": "ST LANDRY, ST MARTIN",
      "is_nibrs": true,
      "latitude": 30.583441,
      "longitude": -91.989274,
      "state_abbr": "LA",
      "state_name": "Louisiana",
      "agency_name": "Arnaudville Police Department",
      "agency_type_name": "City",
      "nibrs_start_date": "2020-08-01"
    }
  ]
}